Region,Name,Latitude,Longitude,URL
نجران,نــــور العريسة,17.565,44.223,https://example.com/عريسة
نجران,نـــــور الغثمة,17.575,44.233,https://example.com/الغثمة
نجران,نـــــور شرورة,17.485,44.243,https://example.com/شرورة
نجران,نـــــور مكة,21.422,39.826,https://example.com/مكة
نجران,نـــــور حبونا,17.495,44.253,https://example.com/حبونا
المنطقة الثانية,موقع 1,24.7136,46.6753,https://example.com/موقع1
المنطقة الثانية,موقع 2,24.7743,46.7386,https://example.com/موقع2
